[{"Bar":"Bill Bateman's Bistro","Street":"566 Gov. Ritchie Highway","City":"Severna Park","State":"MD","Zip":21146,"Phone":"410-315-7960","Day":"TU","Time":"8:00 PM","Company":"Trivia Maryland","Latitude":39.081547,"Longitude":-76.556761},
{"Bar":"Greene Turtle","Street":"1604 Ridgeside Court","City":"Mount Airy","State":"MD","Zip":21771,"Phone":"301-829-9229","Day":"TU","Time":"7:30 PM","Company":"Trivia Maryland","Latitude":39.379084,"Longitude":-77.153223},
{"Bar":"Bill Bateman's Bistro","Street":"805 Aquahart Rd","City":"Glen Burnie","State":"MD","Zip":21060,"Phone":"410-760-5535","Day":"W","Time":"7:30 PM","Company":"Trivia Maryland","Latitude":39.164202,"Longitude":-76.593137},
{"Bar":"Bare Bones Grill & Brewery","Street":"9150-22 Baltimore National Pike","City":"Ellicott City","State":"MD","Zip":21042,"Phone":"410-461-0770","Day":"W","Time":"8:00 PM","Company":"Trivia Maryland","Latitude":39.279507,"Longitude":-76.826963},
{"Bar":"Sullivan's Steak & Beverage Co.","Street":"9624 Fort Meade Road","City":"Laurel","State":"MD","Zip":20707,"Phone":"301-498-7427","Day":"W","Time":"7:00 PM","Company":"Trivia Maryland","Latitude":39.095299,"Longitude":-76.840896},
{"Bar":"Bill Bateman's Bistro","Street":"7800 York Road","City":"Towson","State":"MD","Zip":21204,"Phone":"410-296-2737","Day":"W","Time":"7:30 PM","Company":"Trivia Maryland","Latitude":39.402501,"Longitude":-76.622328},
{"Bar":"Golden Sports Bar","Street":"8801 Baltimore National Pike","City":"Ellicott City","State":"MD","Zip":21043,"Phone":"410-465-3100","Day":"TH","Time":"7:30 PM","Company":"Trivia Maryland","Latitude":39.25474,"Longitude":-76.802549},
{"Bar":"Loafer's Sports Bar and Grill","Street":"6518 Baltimore National Pike","City":"Catonsville","State":"MD","Zip":21228,"Phone":"410-719-2122","Day":"TH","Time":"7:00 PM","Company":"Trivia Maryland","Latitude":39.266085,"Longitude":-76.740337},
{"Bar":"McAvoy's","Street":"2531 Putty Hill Avenue","City":"Parkville","State":"MD","Zip":21234,"Phone":"410-882-0500","Day":"TH","Time":"7:30 PM","Company":"Trivia Maryland","Latitude":39.389521,"Longitude":-76.536663},
{"Bar":"T.J. Elliotts","Street":"6814 Laurel-Bowie Road ","City":"Bowie","State":"MD","Zip":20715,"Phone":"301-262-6282","Day":"SA","Time":"8:00 PM","Company":"Trivia Maryland","Latitude":38.981439,"Longitude":-76.742368},
{"Bar":"The Pour House","Street":"501 South Baltimore Avenue","City":"Ocean City","State":"MD","Zip":21842,"Phone":"410-289-7687","Day":"SU","Time":"7:30 PM","Company":"Trivia Maryland","Latitude":38.377354,"Longitude":-75.070508},
{"Bar":"Portside Tavern","Street":"2821 O'Donnell Street","City":"Baltimore","State":"MD","Zip":21224,"Phone":"410-522-7678","Day":"TU","Time":"7:00 PM","Company":"Trivia Maryland","Latitude":39.28022861,"Longitude":-76.57604389},
{"Bar":"Nobles Bar & Grill","Street":"1024 South Charles Street","City":"Baltimore","State":"MD","Zip":21230,"Phone":"410-727-1355 ","Day":"TU","Time":"7:30 PM","Company":"Trivia Maryland","Latitude":39.27759,"Longitude":-76.614426},
{"Bar":"The Greene Turtle","Street":"9616 Stephen Decatur Highway","City":"Ocean City","State":"MD","Zip":21842,"Phone":"410-213-1500","Day":"W","Time":"8:00 PM","Company":"Trivia Maryland","Latitude":38.377354,"Longitude":-75.070508},
{"Bar":"The Lounge at the Lanes","Street":"2788 MacArthur Road","City":"Fort Meade","State":"MD","Zip":20755,"Phone":"301-677-5541","Day":"TH","Time":"7:00 PM Skip 3rd Thursay","Company":"Trivia Maryland","Latitude":39.107164,"Longitude":-76.740078},
{"Bar":"Jilly's","Street":"1012 Reisterstown Road","City":"Pikesville","State":"MD","Zip":21208,"Phone":"410-653-0610 ","Day":"TH","Time":"8:00 PM","Company":"Trivia Maryland","Latitude":39.380359,"Longitude":-76.72902},
{"Bar":"Jilly's","Street":"10030 Baltimore National Pike","City":"Ellicott City","State":"MD","Zip":21042,"Phone":"410-461-3093","Day":"SA","Time":"8:00 PM","Company":"Final Score Maryland","Latitude":39.272419,"Longitude":-76.864984},
{"Bar":"Irish Channel","Street":"1053 Route 3 North","City":"Crofton","State":"MD","Zip":21054,"Phone":"410-451-4222","Day":"SU","Time":"7:30 PM","Company":"Final Score Maryland","Latitude":39.03697,"Longitude":-76.676108},
{"Bar":"The Harp","Street":"8706 Belair Road","City":"Nottingham","State":"MD","Zip":21236,"Phone":"410-529-4277","Day":"M","Time":"7:00 PM","Company":"Final Score Maryland","Latitude":39.385469,"Longitude":-76.481644},
{"Bar":"1747 Pub","Street":"7 Church Circle","City":"Annapolis","State":"MD","Zip":21401,"Phone":"310-295-9555","Day":"M","Time":"7:30 PM","Company":"Final Score Maryland","Latitude":38.984302,"Longitude":-76.535761},
{"Bar":"PW Sports Bar","Street":"9855 Washington Boulevard North","City":"Laurel","State":"MD","Zip":20723,"Phone":"301-498-4840","Day":"M","Time":"7:30 PM","Company":"Final Score Maryland","Latitude":39.13585,"Longitude":-76.861868},
{"Bar":"Pub Dog","Street":"8865 Stanford Boulevard, #101","City":"Columbia","State":"MD","Zip":21045,"Phone":"410-872-0364","Day":"M","Time":"7:45 PM","Company":"Final Score Maryland","Latitude":39.204442,"Longitude":-76.828777},
{"Bar":"Hellas","Street":"8498 Veterans Highway","City":"Millersville","State":"MD","Zip":21108,"Phone":"410-987-0948","Day":"TU","Time":"7:00 PM","Company":"Final Score Maryland","Latitude":39.098134,"Longitude":-76.61915},
{"Bar":"Hazelwood Inn","Street":"4937 Hazelwood Avenue","City":"Baltimore","State":"MD","Zip":21206,"Phone":"410-866-3116","Day":"TU","Time":"7:00 PM","Company":"Final Score Maryland","Latitude":39.3389,"Longitude":-76.541239},
{"Bar":"Jilly's","Street":"1012 Reisterstown Road","City":"Pikesville","State":"MD","Zip":21208,"Phone":"410-653-0610","Day":"TU","Time":"7:30 PM","Company":"Final Score Maryland","Latitude":39.380359,"Longitude":-76.72902},
{"Bar":"Diamondback Tavern","Street":"3733 Old Columbia Pike","City":"Ellicott City","State":"MD","Zip":21043,"Phone":"410-313-8530","Day":"TU","Time":"7:30 PM","Company":"Final Score Maryland","Latitude":39.25474,"Longitude":-76.802549},
{"Bar":"Brickside Bethesda","Street":"4866 Cordell Avenue","City":"Bethesda","State":"MD","Zip":20814,"Phone":"301-312-6160","Day":"TU","Time":"7:30 PM","Company":"Final Score Maryland","Latitude":39.00151,"Longitude":-77.102399},
{"Bar":"Glory Days","Street":"1220 East Joppa Road","City":"Towson","State":"MD","Zip":21286,"Phone":"443-901-0270","Day":"TU","Time":"8:00 PM","Company":"Final Score Maryland","Latitude":39.40106,"Longitude":-76.583809},
{"Bar":"Glory Days","Street":"7939 Ritchie Highway","City":"Glen Burnie","State":"MD","Zip":21061,"Phone":"443-749-4376","Day":"TU","Time":"8:00 PM","Company":"Final Score Maryland","Latitude":39.15855,"Longitude":-76.627549},
{"Bar":"Jilly's","Street":"10030 Baltimore National Pike","City":"Ellicott City","State":"MD","Zip":21042,"Phone":"410-461-3093","Day":"W","Time":"7:00 PM","Company":"Final Score Maryland","Latitude":39.272419,"Longitude":-76.864984},
{"Bar":"Hard Times CafÇ and Cue","Street":"13032 Middlebrook Road","City":"Germantown","State":"MD","Zip":20874,"Phone":"240-686-0150","Day":"W","Time":"7:30 PM","Company":"Final Score Maryland","Latitude":39.137289,"Longitude":-77.287834},
{"Bar":"GL Shacks","Street":"1207 Liberty Road","City":"Sykesville","State":"MD","Zip":21784,"Phone":"410-549-6000","Day":"W","Time":"7:30 PM","Company":"Final Score Maryland","Latitude":39.399098,"Longitude":-76.962744},
{"Bar":"Ledo Pizza Travilah Square","Street":"10058 Darnestown Road","City":"Rockville","State":"MD","Zip":20850,"Phone":"301-424-2700","Day":"TU","Time":"7:30 PM","Company":"Final Score Maryland","Latitude":39.09134,"Longitude":-77.174159},
{"Bar":"Brunswick Zone Normandy","Street":"8419 Baltimore National Pike","City":"Ellicott City","State":"MD","Zip":21043,"Phone":"410-465-0355","Day":"W","Time":"7:00 PM","Company":"Final Score Maryland","Latitude":39.25474,"Longitude":-76.802549},
{"Bar":"Quench","Street":"9712 Traville Gateway Drive","City":"Rockville","State":"MD","Zip":20850,"Phone":"301-424-8650","Day":"W","Time":"7:30 PM","Company":"Final Score Maryland","Latitude":39.09134,"Longitude":-77.174159},
{"Bar":"American Bistro","Street":"9712 Groffs Mill Drive","City":"Owings Mills","State":"MD","Zip":21117,"Phone":"410-356-3100","Day":"TH","Time":"7:30 PM","Company":"Final Score Maryland","Latitude":39.420135,"Longitude":-76.784851},
{"Bar":"American Tap Room","Street":"36-A Maryland Avenue","City":"Rockville","State":"MD","Zip":20850,"Phone":"301-838-4281","Day":"TH","Time":"7:30 PM","Company":"Final Score Maryland","Latitude":39.09134,"Longitude":-77.174159},
{"Bar":"JJ Muldoon's","Street":"16143 Shady Grove Road","City":"Gaithersburg","State":"MD","Zip":20877,"Phone":"301-258-8866","Day":"F","Time":"7:30 PM","Company":"Final Score Maryland","Latitude":39.142994,"Longitude":-77.184848},
{"Bar":"Applebee's","Street":"2450 Broad Avenue","City":"Timonium","State":"MD","Zip":21093,"Phone":"410-560-3418","Day":"F","Time":"9:00 PM","Company":"Final Score Maryland","Latitude":39.437639,"Longitude":-76.635719},
{"Bar":"Jilly's","Street":"1012 Reisterstown Road","City":"Pikesville","State":"MD","Zip":21208,"Phone":"410-653-0610","Day":"TH","Time":"8:00 PM","Company":"Final Score Maryland","Latitude":39.380359,"Longitude":-76.72902},
{"Bar":"Barking Dog College Park","Street":"7416 Baltimore Avenue","City":"College Park ","State":"MD","Zip":20740,"Phone":"301-277-3647","Day":"TH","Time":"8:00 PM","Company":"Final Score Maryland","Latitude":38.99819,"Longitude":-76.926409},
{"Bar":"Duffy's Irish Pub","Street":"2106 Vermont Avenue NW","City":"Washington","State":"DC","Zip":20001,"Phone":"202-265-3413","Day":"W","Time":"8:00 PM","Company":"Trivia Kings","Latitude":38.90147,"Longitude":-77.021894},
{"Bar":"Grand Central","Street":"2447 18th Street NW","City":"Washington","State":"DC","Zip":20009,"Phone":"202-986-1742","Day":"M","Time":"8:00 PM","Company":"Trivia Kings","Latitude":38.919129,"Longitude":-77.037698},
{"Bar":"Irish Channel","Street":"500 H Street NW","City":"Washington","State":"DC","Zip":20001,"Phone":"202-216-0046","Day":"TU","Time":"7:00 PM","Company":"Trivia Kings","Latitude":38.90147,"Longitude":-77.021894},
{"Bar":"Kitty O' Shea's","Street":"4624 Wisconsin Avenue NW","City":"Washington","State":"DC","Zip":20016,"Phone":"202-525-2058","Day":"TU","Time":"8:00 PM","Company":"Trivia Kings","Latitude":38.9398,"Longitude":-77.088479},
{"Bar":"Meridian Pint","Street":"300 11th Street NW","City":"Washington","State":"DC","Zip":20010,"Phone":"202-558-1075","Day":"W","Time":"8:00 PM","Company":"Trivia Kings","Latitude":38.932207,"Longitude":-77.027167},
{"Bar":"Molly Malone's","Street":"713 8th Street SE","City":"Washington","State":"DC","Zip":20003,"Phone":"202-547-1222","Day":"W","Time":"7:30 PM","Company":"Trivia Kings","Latitude":38.883154,"Longitude":-76.992137},
{"Bar":"Old Dominion Brewhouse","Street":"1219 9th Street NW","City":"Washington","State":"DC","Zip":20001,"Phone":"202-289-8158","Day":"TU","Time":"7:30 PM","Company":"Trivia Kings","Latitude":38.90147,"Longitude":-77.021894},
{"Bar":"Old Glory","Street":"3139 M Stret NW","City":"Washington","State":"DC","Zip":20007,"Phone":"202-337-3406","Day":"TU","Time":"8:00 PM","Company":"Trivia Kings","Latitude":38.91307,"Longitude":-77.074104},
{"Bar":"Star and Shamrock","Street":"1341 H Street NE","City":"Washington","State":"DC","Zip":20002,"Phone":"202-388-3833","Day":"M","Time":"8:00 PM","Company":"Trivia Kings","Latitude":38.907909,"Longitude":-76.976669},
{"Bar":"Trusty's ","Street":"1402 Pennsylvania Avenue SE","City":"Washington","State":"DC","Zip":20003,"Phone":"202-547-1000","Day":"TU","Time":"8:00 PM","Company":"Trivia Kings","Latitude":38.883154,"Longitude":-76.992137},
{"Bar":"Clarendon Grill","Street":"1101 North Highland Street","City":"Arlington","State":"VA","Zip":22201,"Phone":"703-524-7455","Day":"W","Time":"8:00 PM","Company":"Trivia Kings","Latitude":38.88659,"Longitude":-77.094879},
{"Bar":"Crystal City Sports Pub","Street":"529 23rd Street South","City":"Arlington","State":"VA","Zip":22202,"Phone":"703-521-8215","Day":"M","Time":"8:00 PM","Company":"Trivia Kings","Latitude":38.85678,"Longitude":-77.057639},
{"Bar":"Grevey's Sports Bar","Street":"8130 Arlington Boulevard","City":"Falls Church","State":"VA","Zip":22042,"Phone":"703-560-8530","Day":"W","Time":"8:00 PM","Company":"Trivia Kings","Latitude":38.86622,"Longitude":-77.193909},
{"Bar":"P.J. Skidoos","Street":"9908 Lee Highway","City":"Fairfax","State":"VA","Zip":22030,"Phone":"703-591-4515","Day":"W","Time":"8:30 PM","Company":"Trivia Kings","Latitude":38.848467,"Longitude":-77.334439},
{"Bar":"Public House No. 7","Street":"6315 Leesburg Pike","City":"Falls Church","State":"VA","Zip":22044,"Phone":"703-942-6383","Day":"TU","Time":"8:00 PM","Company":"Trivia Kings","Latitude":38.870051,"Longitude":-77.152843},
{"Bar":"Samuel Beckett's","Street":"2800 South Randolph Street","City":"Arlington","State":"VA","Zip":22206,"Phone":"703-379-0122","Day":"TU","Time":"7:30 PM","Company":"Trivia Kings","Latitude":38.840982,"Longitude":-77.091219},
{"Bar":"SinÇ Irish Pub","Street":"1301 South Joyce Street","City":"Arlington","State":"VA","Zip":22202,"Phone":"703-415-4420","Day":"SU","Time":"7:00 PM","Company":"Trivia Kings","Latitude":38.85678,"Longitude":-77.057639},
{"Bar":"Union Jack's Ballston","Street":"671 North Glebe Road","City":"Arlington","State":"VA","Zip":22203,"Phone":"703-778-3568","Day":"M","Time":"8:00 PM","Company":"Trivia Kings","Latitude":38.87442,"Longitude":-77.114979},
{"Bar":"Wilson Tavern","Street":"2403 Wilson Boulevard","City":"Arlington","State":"VA","Zip":22201,"Phone":"571-970-5330","Day":"TU","Time":"8:00 PM","Company":"Trivia Kings","Latitude":38.88659,"Longitude":-77.094879},
{"Bar":"James Joyce Irish Pub","Street":"616 President Street","City":"Baltimore","State":"MD","Zip":21202,"Phone":"410-727-5107","Day":"TU","Time":"8:00 PM","Company":"Trivia Kings","Latitude":39.295179,"Longitude":-76.607828},
{"Bar":"Union Jack's Columbia","Street":"10400 Little Patuxent Parkway","City":"Columbia","State":"MD","Zip":21044,"Phone":"410-740-5225","Day":"M","Time":"8:00 PM","Company":"Trivia Kings","Latitude":39.214155,"Longitude":-76.87881},
{"Bar":"Growlers","Street":"227 East Diamond Avenue","City":"Gaithersburg","State":"MD","Zip":20877,"Phone":"301-519-9400","Day":"TU","Time":"8:00 PM","Company":"Trivia Kings","Latitude":39.142994,"Longitude":-77.184848},
{"Bar":"Irish Channel","Street":"1053 Route 3 North","City":"Crofton","State":"MD","Zip":21054,"Phone":"410-451-4222","Day":"W","Time":"7:00 PM","Company":"Trivia Kings","Latitude":39.03697,"Longitude":-76.676108},
{"Bar":"Limerick Pub","Street":"11301 Elkin Street","City":"Wheaton","State":"MD","Zip":20902,"Phone":"301-946-3232","Day":"TU","Time":"8:00 PM","Company":"Trivia Kings","Latitude":39.04231,"Longitude":-77.047962},
{"Bar":"Union Jack's Annapolis","Street":"2072 Somerville Road","City":"Annapolis","State":"MD","Zip":21041,"Phone":"410-841-5599","Day":"M","Time":"8:00 PM","Company":"Trivia Kings","Latitude":38.9767,"Longitude":-76.489934},
{"Bar":"Union Jack's Bethesda","Street":"4916 Saint Elmo Avenue","City":"Bethesda","State":"MD","Zip":20814,"Phone":"301-652-2561","Day":"TU","Time":"8:00 PM","Company":"Trivia Kings","Latitude":39.00151,"Longitude":-77.102399},
{"Bar":"Austin Grill","Street":"750 E Street NW","City":"Washington","State":"DC","Zip":20004,"Phone":"202-393-3776","Day":"M","Time":"7:30 PM","Company":"Team Trivia","Latitude":38.89097,"Longitude":-77.022124},
{"Bar":"D.B. McMillan's","Street":"23415 Three Notch Road","City":"California","State":"MD","Zip":20619,"Phone":"301-866-0777","Day":"M","Time":"6:30 PM","Company":"Team Trivia","Latitude":38.29815,"Longitude":-76.527589},
{"Bar":"Ruddy Duck","Street":"13200 Dowell Road","City":"Dowell","State":"MD","Zip":20629,"Phone":"410-394-3825","Day":"M","Time":"7:00 PM","Company":"Team Trivia","Latitude":38.33787,"Longitude":-76.453089},
{"Bar":"Rockfish","Street":"400 Sixthe Street","City":"Annapolis","State":"MD","Zip":21403,"Phone":"410-267-1800","Day":"M","Time":"8:00 PM","Company":"Team Trivia","Latitude":38.949032,"Longitude":-76.488507},
{"Bar":"Lounge at Bollywood Masala","Street":"22576 MacArthur Boulevard","City":"California","State":"MD","Zip":20619,"Phone":"301-862-7735","Day":"TU","Time":"6:30 PM","Company":"Team Trivia","Latitude":38.309309,"Longitude":-76.522537},
{"Bar":"T.G.I. Friday's","Street":"3033 Waldorf Marketplace","City":"Waldorf","State":"MD","Zip":20604,"Phone":"301-932-8750","Day":"TU","Time":"7:30 PM","Company":"Team Trivia","Latitude":38.61924,"Longitude":-76.893589},
{"Bar":"Gridiron Grill","Street":"20865 Callaway Villageway","City":"Callaway","State":"MD","Zip":20620,"Phone":"301-994-1020","Day":"W","Time":"7:00 PM","Company":"Team Trivia","Latitude":38.232739,"Longitude":-76.520132},
{"Bar":"Chevys","Street":"2430 Solomons Island Road","City":"Annapolis","State":"MD","Zip":21401,"Phone":"410-573-4932","Day":"W","Time":"7:30 PM","Company":"Team Trivia","Latitude":38.98431,"Longitude":-76.535769},
{"Bar":"Buffalo Wild Wings","Street":"46370 Lexington Village Way","City":"Lexington Park","State":"MD","Zip":20653,"Phone":"240-237-8144","Day":"W","Time":"7:00 PM","Company":"Team Trivia","Latitude":38.24854,"Longitude":-76.452039},
{"Bar":"Greene Turtle","Street":"98 Solomons Island Road","City":"Prince Frederick","State":"MD","Zip":20676,"Phone":"410-414-5030","Day":"TH","Time":"7:00 PM","Company":"Team Trivia","Latitude":38.488131,"Longitude":-76.53235},
{"Bar":"El Cerro Grande","Street":"22695 Washington Street","City":"Leonardtown","State":"MD","Zip":20650,"Phone":"301-997-0808","Day":"TH","Time":"6:30 PM","Company":"Team Trivia","Latitude":38.27724,"Longitude":-76.635469},
{"Bar":"Chevys","Street":"15914 Crain Highway","City":"Brandywine","State":"MD","Zip":20613,"Phone":"301-782-9099","Day":"TH","Time":"7:00 PM","Company":"Team Trivia","Latitude":38.693157,"Longitude":-76.847396},
{"Bar":"St. Babes Tavern","Street":"8760 Hawthorne Road","City":"La Plata ","State":"MD","Zip":20760,"Phone":"301-934-8422","Day":"SA","Time":"7:30 PM","Company":"Team Trivia","Latitude":38.526268,"Longitude":-76.977601},
{"Bar":"Barracuda's","Street":"1230 East Fort Avenue","City":"Baltimore","State":"MD","Zip":21230,"Phone":"410-685-2832","Day":"M","Time":"7:30 PM","Company":"Showtime Trivia","Latitude":39.275044,"Longitude":-76.623525},
{"Bar":"Belisimo's","Street":"2900 Baltimore Boulevard","City":"Finksburg","State":"MD","Zip":21048,"Phone":"410-833-5777","Day":"M","Time":"8:00 PM","Company":"Showtime Trivia","Latitude":39.505121,"Longitude":-76.911094},
{"Bar":"Charles Village Pub","Street":"19 West penn Avenue","City":"Towson","State":"MD","Zip":21204,"Phone":"410-821-8155","Day":"M","Time":"7:00 PM","Company":"Showtime Trivia","Latitude":39.402501,"Longitude":-76.622328},
{"Bar":"Elliott's Pour House","Street":"3728 Hudson Street","City":"Brewers Hill","State":"MD","Zip":21224,"Phone":"410-276-2200","Day":"M","Time":"7:30 PM","Company":"Showtime Trivia","Latitude":39.28559,"Longitude":-76.553939},
{"Bar":"Greene Turtle","Street":"1604 Ridgeside Court","City":"Mount Airy","State":"MD","Zip":21771,"Phone":"301-829-9229","Day":"M","Time":"7:00 PM","Company":"Showtime Trivia","Latitude":39.379084,"Longitude":-77.153223},
{"Bar":"Greene Turtle","Street":"18101 Town Center Drive","City":"Olney","State":"MD","Zip":20832,"Phone":"301-570-0343","Day":"M","Time":"7:00 PM","Company":"Showtime Trivia","Latitude":39.151409,"Longitude":-77.071624},
{"Bar":"MaGerks","Street":"1061 South Charles Street","City":"Baltimore","State":"MD","Zip":21230,"Phone":"410-576-9230","Day":"M","Time":"7:30 PM","Company":"Showtime Trivia","Latitude":39.275044,"Longitude":-76.623525},
{"Bar":"Phoenix Emporium","Street":"8049 Main Street","City":"Ellicott City","State":"MD","Zip":21043,"Phone":"410-465-5665","Day":"M","Time":"8:00 PM","Company":"Showtime Trivia","Latitude":39.25474,"Longitude":-76.802549},
{"Bar":"Bill Bateman's Bistro","Street":"8100 Waltham Woods Road","City":"Baltimore","State":"MD","Zip":21234,"Phone":"410-668-1080","Day":"TU","Time":"8:00 PM","Company":"Showtime Trivia","Latitude":39.389521,"Longitude":-76.536663},
{"Bar":"Cobblestone Tavern","Street":"1438 Liberty Road","City":"Eldersburg","State":"MD","Zip":21784,"Phone":"410-795-7001","Day":"TU","Time":"8:00 PM","Company":"Showtime Trivia","Latitude":39.399098,"Longitude":-76.962744},
{"Bar":"Greene Turtle","Street":"177 Jennifer Road","City":"Annapolis","State":"MD","Zip":21401,"Phone":"410-266-747","Day":"TU","Time":"7:30 PM","Company":"Showtime Trivia","Latitude":38.98431,"Longitude":-76.535769},
{"Bar":"Greene Turtle","Street":"19961 Century Boulevard","City":"Germantown","State":"MD","Zip":20874,"Phone":"240-686-1800","Day":"TU","Time":"7:00 PM","Company":"Showtime Trivia","Latitude":39.16545,"Longitude":-77.275618},
{"Bar":"Greene Turtle","Street":"2 Restaurant Park Drive","City":"Owings Mills","State":"MD","Zip":21117,"Phone":"443-501-3822","Day":"TU","Time":"7:00 PM","Company":"Showtime Trivia","Latitude":39.420135,"Longitude":-76.784851},
{"Bar":"Greene Turtle","Street":"20 Magothy Beach Road","City":"Pasadena","State":"MD","Zip":21122,"Phone":"410-437-0075","Day":"TU","Time":"7:30 PM","Company":"Showtime Trivia","Latitude":39.12812,"Longitude":-76.520519},
{"Bar":"Hop Heads Ale House","Street":"9611 Pulaski Highway","City":"Baltimore","State":"MD","Zip":21221,"Phone":"443-969-2477","Day":"TU","Time":"8:00 PM","Company":"Showtime Trivia","Latitude":39.30783,"Longitude":-76.449819},
{"Bar":"Looney's Pub","Street":"312 South Main Street","City":"Bel Air","State":"MD","Zip":21014,"Phone":"410-803-7080","Day":"TU","Time":"7:30 PM","Company":"Showtime Trivia","Latitude":39.5363,"Longitude":-76.350069},
{"Bar":"Mick O'Sheas Tavern","Street":"328 North Charles Street","City":"Baltimore","State":"MD","Zip":21201,"Phone":"410-539-7504","Day":"TU","Time":"8:30 PM","Company":"Showtime Trivia","Latitude":39.29536,"Longitude":-76.621314},
{"Bar":"Padonia Station","Street":"63 East Padonia Road","City":"Timonium","State":"MD","Zip":21093,"Phone":"410-252-8181","Day":"TU","Time":"8:00 PM","Company":"Showtime Trivia","Latitude":39.437639,"Longitude":-76.635719},
{"Bar":"Dempsey's Brew Pub","Street":"333 West Camden Street","City":"Baltimore","State":"MD","Zip":21230,"Phone":"410-843-7902","Day":"W","Time":"7:00 PM When no Orioles night home game","Company":"Showtime Trivia","Latitude":39.275044,"Longitude":-76.623525},
{"Bar":"Firehouse Tavern","Street":"2800 East Joppa Road","City":"Parkville","State":"MD","Zip":21234,"Phone":"410-661-3555","Day":"W","Time":"8:00 PM","Company":"Showtime Trivia","Latitude":39.389521,"Longitude":-76.536663},
{"Bar":"Greene Turtle","Street":"2383 Brandermill Boulevard","City":"Gambrills","State":"MD","Zip":21054,"Phone":"410-451-7544","Day":"W","Time":"7:30 PM","Company":"Showtime Trivia","Latitude":39.03697,"Longitude":-76.676108},
{"Bar":"Greene Turtle","Street":"830 Market Street","City":"Westminster","State":"MD","Zip":21157,"Phone":"410-871-1524","Day":"W","Time":"8:30 PM","Company":"Showtime Trivia","Latitude":39.55773,"Longitude":-76.984204},
{"Bar":"Main Street Tower","Street":"29 South Main Street","City":"Bel Air","State":"MD","Zip":21014,"Phone":"410-838-8007","Day":"W","Time":"7:00 PM","Company":"Showtime Trivia","Latitude":39.5363,"Longitude":-76.350069},
{"Bar":"Ottobar","Street":"2549 North Howard Street","City":"Baltimore","State":"MD","Zip":21218,"Phone":"410-662-0069","Day":"W","Time":"7:00 PM","Company":"Showtime Trivia","Latitude":39.3277,"Longitude":-76.605779},
{"Bar":"Sunset Cove","Street":"3408 Red Rose Farm Road","City":"Bowleys Quarters","State":"MD","Zip":21220,"Phone":"410-630-2031","Day":"W","Time":"7:00 PM","Company":"Showtime Trivia","Latitude":39.34128,"Longitude":-76.416469},
{"Bar":"Tilted Kilt","Street":"8133 Honeygo Boulevard","City":"White Marsh","State":"MD","Zip":21236,"Phone":"410-497-0792","Day":"W","Time":"8:00 PM","Company":"Showtime Trivia","Latitude":39.385469,"Longitude":-76.481644},
{"Bar":"Bill Bateman's Bistro","Street":"102 Chartley Drive","City":"Reisterstown","State":"MD","Zip":21136,"Phone":"410-526-6200","Day":"TH","Time":"8:30 PM","Company":"Showtime Trivia","Latitude":39.465855,"Longitude":-76.809857},
{"Bar":"Glory Days Grill","Street":"1348 Liberty Road","City":"Eldersburg","State":"MD","Zip":21784,"Phone":"410-552-5145","Day":"TH","Time":"8:30 PM","Company":"Showtime Trivia","Latitude":39.399098,"Longitude":-76.962744},
{"Bar":"Ropewalk Tavern","Street":"1209 South Charles Street","City":"Baltimore","State":"MD","Zip":21230,"Phone":"410-727-1298","Day":"TH","Time":"8:00 PM","Company":"Showtime Trivia","Latitude":39.275044,"Longitude":-76.623525}]