 [{"Bar":"Bill Bateman's Bistro","Street":"566 Gov. Ritchie Highway","City":"Severna Park","State":"MD","Zip":21146,"Phone":"410-315-7960","Day":"TU","Time":"8:00 PM","Company":"Trivia Maryland","Latitude":39.076603,"Longitude":-76.545169,"":null,"":null,"":null,"":null,"":null,"":null,"":null,"":null,"":null,"":null,"color":null},
  {"Bar":"Greene Turtle","Street":"1604 Ridgeside Court","City":"Mount Airy","State":"MD","Zip":21771,"Phone":"301-829-9229","Day":"TU","Time":"7:30 PM","Company":"Trivia Maryland","Latitude":39.363569,"Longitude":-77.16256,"":null,"":null,"":null,"":null,"":null,"":null,"":null,"":null,"":null,"":null,"color":null},
  {"Bar":"Bill Bateman's Bistro","Street":"805 Aquahart Rd","City":"Glen Burnie","State":"MD","Zip":21060,"Phone":"410-760-5535","Day":"W","Time":"7:30 PM","Company":"Trivia Maryland","Latitude":39.152692,"Longitude":-76.617017,"":null,"":null,"":null,"":null,"":null,"":null,"":null,"":null,"":null,"":null,"color":null},
  {"Bar":"Bare Bones Grill & Brewery","Street":"9150-22 Baltimore National Pike","City":"Ellicott City","State":"MD","Zip":21042,"Phone":"410-461-0770","Day":"W","Time":"8:00 PM","Company":"Trivia Maryland","Latitude":39.27719,"Longitude":-76.827718,"":null,"":null,"":null,"":null,"":null,"":null,"":null,"":null,"":null,"":null,"color":null},
  {"Bar":"Sullivan's Steak & Beverage Co.","Street":"9624 Fort Meade Road","City":"Laurel","State":"MD","Zip":20707,"Phone":"301-498-7427","Day":"W","Time":"7:00 PM","Company":"Trivia Maryland","Latitude":39.095299,"Longitude":-76.840896,"":null,"":null,"":null,"":null,"":null,"":null,"":null,"":null,"":null,"":null,"color":null},
  {"Bar":"Bill Bateman's Bistro","Street":"7800 York Road","City":"Towson","State":"MD","Zip":21204,"Phone":"410-296-2737","Day":"W","Time":"7:30 PM","Company":"Trivia Maryland","Latitude":39.39066,"Longitude":-76.605132,"":null,"":null,"":null,"":null,"":null,"":null,"":null,"":null,"":null,"":null,"color":null},
  {"Bar":"Golden Sports Bar","Street":"8801 Baltimore National Pike","City":"Ellicott City","State":"MD","Zip":21043,"Phone":"410-465-3100","Day":"TH","Time":"7:30 PM","Company":"Trivia Maryland","Latitude":39.279169,"Longitude":-76.816393,"":null,"":null,"":null,"":null,"":null,"":null,"":null,"":null,"":null,"":null,"color":null},
  {"Bar":"Loafer's Sports Bar and Grill","Street":"6518 Baltimore National Pike","City":"Catonsville","State":"MD","Zip":21228,"Phone":"410-719-2122","Day":"TH","Time":"7:00 PM","Company":"Trivia Maryland","Latitude":39.285787,"Longitude":-76.762225,"":null,"":null,"":null,"":null,"":null,"":null,"":null,"":null,"":null,"":null,"color":null},
  {"Bar":"McAvoy's","Street":"2531 Putty Hill Avenue","City":"Parkville","State":"MD","Zip":21234,"Phone":"410-882-0500","Day":"TH","Time":"7:30 PM","Company":"Trivia Maryland","Latitude":39.389464,"Longitude":-76.542027,"":null,"":null,"":null,"":null,"":null,"":null,"":null,"":null,"":null,"":null,"color":null},
  {"Bar":"T.J. Elliotts","Street":"6814 Laurel-Bowie Road ","City":"Bowie","State":"MD","Zip":20715,"Phone":"301-262-6282","Day":"SA","Time":"8:00 PM","Company":"Trivia Maryland","Latitude":38.984161,"Longitude":-76.757137,"":null,"":null,"":null,"":null,"":null,"":null,"":null,"":null,"":null,"":null,"color":null},
  {"Bar":"The Pour House","Street":"501 South Baltimore Avenue","City":"Ocean City","State":"MD","Zip":21842,"Phone":"410-289-7687","Day":"SU","Time":"7:30 PM","Company":"Trivia Maryland","Latitude":38.328477,"Longitude":-75.08773,"":null,"":null,"":null,"":null,"":null,"":null,"":null,"":null,"":null,"":null,"color":null},
  {"Bar":"Portside Tavern","Street":"2821 O'Donnell Street","City":"Baltimore","State":"MD","Zip":21224,"Phone":"410-522-7678","Day":"TU","Time":"7:00 PM","Company":"Trivia Maryland","Latitude":39.280014,"Longitude":-76.57604,"":null,"":null,"":null,"":null,"":null,"":null,"":null,"":null,"":null,"":null,"color":null},
  {"Bar":"Nobles Bar & Grill","Street":"1024 South Charles Street","City":"Baltimore","State":"MD","Zip":21230,"Phone":"410-727-1355 ","Day":"TU","Time":"7:30 PM","Company":"Trivia Maryland","Latitude":39.27759,"Longitude":-76.614426,"":null,"":null,"":null,"":null,"":null,"":null,"":null,"":null,"":null,"":null,"color":null},
  {"Bar":"The Greene Turtle","Street":"9616 Stephen Decatur Highway","City":"Ocean City","State":"MD","Zip":21842,"Phone":"410-213-1500","Day":"W","Time":"8:00 PM","Company":"Trivia Maryland","Latitude":38.32804,"Longitude":-75.117999,"":null,"":null,"":null,"":null,"":null,"":null,"":null,"":null,"":null,"":null,"color":null},
  {"Bar":"The Lounge at the Lanes","Street":"2788 MacArthur Road","City":"Fort Meade","State":"MD","Zip":20755,"Phone":"301-677-5541","Day":"TH","Time":"7:00 PM Skip 3rd Thursday of month","Company":"Trivia Maryland","Latitude":39.107933,"Longitude":-76.739151,"":null,"":null,"":null,"":null,"":null,"":null,"":null,"":null,"":null,"":null,"color":null},
  {"Bar":"Jilly's","Street":"1012 Reisterstown Road","City":"Pikesville","State":"MD","Zip":21208,"Phone":"410-653-0610 ","Day":"TH","Time":"8:00 PM","Company":"Trivia Maryland","Latitude":39.372861,"Longitude":-76.721548,"":null,"":null,"":null,"":null,"":null,"":null,"":null,"":null,"":null,"":null,"color":null},
  {"Bar":"Jilly's","Street":"10030 Baltimore National Pike","City":"Ellicott City","State":"MD","Zip":21042,"Phone":"410-461-3093","Day":"SA","Time":"8:00 PM","Company":"Final Score Maryland","Latitude":39.279335,"Longitude":-76.857686,"":null,"":null,"":null,"":null,"":null,"":null,"":null,"":null,"":null,"":null,"color":null},
  {"Bar":"Irish Channel","Street":"1053 Route 3 North","City":"Crofton","State":"MD","Zip":21054,"Phone":"410-451-4222","Day":"SU","Time":"7:30 PM","Company":"Final Score Maryland","Latitude":39.026847,"Longitude":-76.688239,"":null,"":null,"":null,"":null,"":null,"":null,"":null,"":null,"":null,"":null,"color":null},
  {"Bar":"The Harp","Street":"8706 Belair Road","City":"Nottingham","State":"MD","Zip":21236,"Phone":"410-529-4277","Day":"M","Time":"7:00 PM","Company":"Final Score Maryland","Latitude":39.392191,"Longitude":-76.488142,"":null,"":null,"":null,"":null,"":null,"":null,"":null,"":null,"":null,"":null,"color":null},
  {"Bar":"1747 Pub","Street":"7 Church Circle","City":"Annapolis","State":"MD","Zip":21401,"Phone":"310-295-9555","Day":"M","Time":"7:30 PM","Company":"Final Score Maryland","Latitude":38.978143,"Longitude":-76.493019,"":null,"":null,"":null,"":null,"":null,"":null,"":null,"":null,"":null,"":null,"color":null},
  {"Bar":"PW Sports Bar","Street":"9855 Washington Boulevard North","City":"Laurel","State":"MD","Zip":20723,"Phone":"301-498-4840","Day":"M","Time":"7:30 PM","Company":"Final Score Maryland","Latitude":39.11521,"Longitude":-76.832504,"":null,"":null,"":null,"":null,"":null,"":null,"":null,"":null,"":null,"":null,"color":null},
  {"Bar":"Pub Dog","Street":"8865 Stanford Boulevard, #101","City":"Columbia","State":"MD","Zip":21045,"Phone":"410-872-0364","Day":"M","Time":"7:45 PM","Company":"Final Score Maryland","Latitude":39.191673,"Longitude":-76.817143,"":null,"":null,"":null,"":null,"":null,"":null,"":null,"":null,"":null,"":null,"color":null},
  {"Bar":"Hellas","Street":"8498 Veterans Highway","City":"Millersville","State":"MD","Zip":21108,"Phone":"410-987-0948","Day":"TU","Time":"7:00 PM","Company":"Final Score Maryland","Latitude":39.099002,"Longitude":-76.626624,"":null,"":null,"":null,"":null,"":null,"":null,"":null,"":null,"":null,"":null,"color":null},
  {"Bar":"Hazelwood Inn","Street":"4937 Hazelwood Avenue","City":"Baltimore","State":"MD","Zip":21206,"Phone":"410-866-3116","Day":"TU","Time":"7:00 PM","Company":"Final Score Maryland","Latitude":39.340962,"Longitude":-76.524305,"":null,"":null,"":null,"":null,"":null,"":null,"":null,"":null,"":null,"":null,"color":null},
  {"Bar":"Jilly's","Street":"1012 Reisterstown Road","City":"Pikesville","State":"MD","Zip":21208,"Phone":"410-653-0610","Day":"TU","Time":"7:30 PM","Company":"Final Score Maryland","Latitude":39.372861,"Longitude":-76.721548,"":null,"":null,"":null,"":null,"":null,"":null,"":null,"":null,"":null,"":null,"color":null},
  {"Bar":"Diamondback Tavern","Street":"3733 Old Columbia Pike","City":"Ellicott City","State":"MD","Zip":21043,"Phone":"410-313-8530","Day":"TU","Time":"7:30 PM","Company":"Final Score Maryland","Latitude":39.266972,"Longitude":-76.799068,"":null,"":null,"":null,"":null,"":null,"":null,"":null,"":null,"":null,"":null,"color":null},
  {"Bar":"Brickside Bethesda","Street":"4866 Cordell Avenue","City":"Bethesda","State":"MD","Zip":20814,"Phone":"301-312-6160","Day":"TU","Time":"7:30 PM","Company":"Final Score Maryland","Latitude":38.989915,"Longitude":-77.097548,"":null,"":null,"":null,"":null,"":null,"":null,"":null,"":null,"":null,"":null,"color":null},
  {"Bar":"Glory Days","Street":"1220 East Joppa Road","City":"Towson","State":"MD","Zip":21286,"Phone":"443-901-0270","Day":"TU","Time":"8:00 PM","Company":"Final Score Maryland","Latitude":39.396324,"Longitude":-76.577818,"":null,"":null,"":null,"":null,"":null,"":null,"":null,"":null,"":null,"":null,"color":null},
  {"Bar":"Glory Days","Street":"7939 Ritchie Highway","City":"Glen Burnie","State":"MD","Zip":21061,"Phone":"443-749-4376","Day":"TU","Time":"8:00 PM","Company":"Final Score Maryland","Latitude":39.138185,"Longitude":-76.600382,"":null,"":null,"":null,"":null,"":null,"":null,"":null,"":null,"":null,"":null,"color":null},
  {"Bar":"Jilly's","Street":"10030 Baltimore National Pike","City":"Ellicott City","State":"MD","Zip":21042,"Phone":"410-461-3093","Day":"W","Time":"7:00 PM","Company":"Final Score Maryland","Latitude":39.279335,"Longitude":-76.857686,"":null,"":null,"":null,"":null,"":null,"":null,"":null,"":null,"":null,"":null,"color":null},
  {"Bar":"Hard Times Café and Cue","Street":"13032 Middlebrook Road","City":"Germantown","State":"MD","Zip":20874,"Phone":"240-686-0150","Day":"W","Time":"7:30 PM","Company":"Final Score Maryland","Latitude":39.181586,"Longitude":-77.269843,"":null,"":null,"":null,"":null,"":null,"":null,"":null,"":null,"":null,"":null,"color":null},
  {"Bar":"GL Shacks","Street":"1207 Liberty Road","City":"Sykesville","State":"MD","Zip":21784,"Phone":"410-549-6000","Day":"W","Time":"7:30 PM","Company":"Final Score Maryland","Latitude":39.404718,"Longitude":-76.952912,"":null,"":null,"":null,"":null,"":null,"":null,"":null,"":null,"":null,"":null,"color":null},
  {"Bar":"Ledo Pizza Travilah Square","Street":"10058 Darnestown Road","City":"Rockville","State":"MD","Zip":20850,"Phone":"301-424-2700","Day":"TU","Time":"7:30 PM","Company":"Final Score Maryland","Latitude":39.096882,"Longitude":-77.206289,"":null,"":null,"":null,"":null,"":null,"":null,"":null,"":null,"":null,"":null,"color":null},
  {"Bar":"Brunswick Zone Normandy","Street":"8419 Baltimore National Pike","City":"Ellicott City","State":"MD","Zip":21043,"Phone":"410-465-0355","Day":"W","Time":"7:00 PM","Company":"Final Score Maryland","Latitude":39.28626,"Longitude":-76.803831,"":null,"":null,"":null,"":null,"":null,"":null,"":null,"":null,"":null,"":null,"color":null},
  {"Bar":"Quench","Street":"9712 Traville Gateway Drive","City":"Rockville","State":"MD","Zip":20850,"Phone":"301-424-8650","Day":"W","Time":"7:30 PM","Company":"Final Score Maryland","Latitude":39.091486,"Longitude":-77.204132,"":null,"":null,"":null,"":null,"":null,"":null,"":null,"":null,"":null,"":null,"color":null},
  {"Bar":"American Bistro","Street":"9712 Groffs Mill Drive","City":"Owings Mills","State":"MD","Zip":21117,"Phone":"410-356-3100","Day":"TH","Time":"7:30 PM","Company":"Final Score Maryland","Latitude":39.405458,"Longitude":-76.809781,"":null,"":null,"":null,"":null,"":null,"":null,"":null,"":null,"":null,"":null,"color":null},
  {"Bar":"American Tap Room","Street":"36-A Maryland Avenue","City":"Rockville","State":"MD","Zip":20850,"Phone":"301-838-4281","Day":"TH","Time":"7:30 PM","Company":"Final Score Maryland","Latitude":39.085395,"Longitude":-77.150946,"":null,"":null,"":null,"":null,"":null,"":null,"":null,"":null,"":null,"":null,"color":null},
  {"Bar":"JJ Muldoon's","Street":"16143 Shady Grove Road","City":"Gaithersburg","State":"MD","Zip":20877,"Phone":"301-258-8866","Day":"F","Time":"7:30 PM","Company":"Final Score Maryland","Latitude":39.120853,"Longitude":-77.179436,"":null,"":null,"":null,"":null,"":null,"":null,"":null,"":null,"":null,"":null,"color":null},
  {"Bar":"Applebee's","Street":"2450 Broad Avenue","City":"Timonium","State":"MD","Zip":21093,"Phone":"410-560-3418","Day":"F","Time":"9:00 PM","Company":"Final Score Maryland","Latitude":39.454902,"Longitude":-76.635047,"":null,"":null,"":null,"":null,"":null,"":null,"":null,"":null,"":null,"":null,"color":null},
  {"Bar":"Jilly's","Street":"1012 Reisterstown Road","City":"Pikesville","State":"MD","Zip":21208,"Phone":"410-653-0610","Day":"TH","Time":"8:00 PM","Company":"Final Score Maryland","Latitude":39.372861,"Longitude":-76.721548,"":null,"":null,"":null,"":null,"":null,"":null,"":null,"":null,"":null,"":null,"color":null},
  {"Bar":"Barking Dog College Park","Street":"7416 Baltimore Avenue","City":"College Park ","State":"MD","Zip":20740,"Phone":"301-277-3647","Day":"TH","Time":"8:00 PM","Company":"Final Score Maryland","Latitude":38.981592,"Longitude":-76.937967,"":null,"":null,"":null,"":null,"":null,"":null,"":null,"":null,"":null,"":null,"color":null},
  {"Bar":"Duffy's Irish Pub","Street":"2106 Vermont Avenue NW","City":"Washington","State":"DC","Zip":20001,"Phone":"202-265-3413","Day":"W","Time":"8:00 PM","Company":"Trivia Kings","Latitude":38.918218,"Longitude":-77.024639,"":null,"":null,"":null,"":null,"":null,"":null,"":null,"":null,"":null,"":null,"color":null},
  {"Bar":"Grand Central","Street":"2447 18th Street NW","City":"Washington","State":"DC","Zip":20009,"Phone":"202-986-1742","Day":"M","Time":"8:00 PM","Company":"Trivia Kings","Latitude":38.921712,"Longitude":-77.042338,"":null,"":null,"":null,"":null,"":null,"":null,"":null,"":null,"":null,"":null,"color":null},
  {"Bar":"Irish Channel","Street":"500 H Street NW","City":"Washington","State":"DC","Zip":20001,"Phone":"202-216-0046","Day":"TU","Time":"7:00 PM","Company":"Trivia Kings","Latitude":38.899782,"Longitude":-77.018987,"":null,"":null,"":null,"":null,"":null,"":null,"":null,"":null,"":null,"":null,"color":null},
  {"Bar":"Kitty O' Shea's","Street":"4624 Wisconsin Avenue NW","City":"Washington","State":"DC","Zip":20016,"Phone":"202-525-2058","Day":"TU","Time":"8:00 PM","Company":"Trivia Kings","Latitude":38.950154,"Longitude":-77.080494,"":null,"":null,"":null,"":null,"":null,"":null,"":null,"":null,"":null,"":null,"color":null},
  {"Bar":"Meridian Pint","Street":"300 11th Street NW","City":"Washington","State":"DC","Zip":20010,"Phone":"202-558-1075","Day":"W","Time":"8:00 PM","Company":"Trivia Kings","Latitude":38.9287,"Longitude":-77.027479,"":null,"":null,"":null,"":null,"":null,"":null,"":null,"":null,"":null,"":null,"color":null},
  {"Bar":"Molly Malone's","Street":"713 8th Street SE","City":"Washington","State":"DC","Zip":20003,"Phone":"202-547-1222","Day":"W","Time":"7:30 PM","Company":"Trivia Kings","Latitude":38.880771,"Longitude":-76.99499,"":null,"":null,"":null,"":null,"":null,"":null,"":null,"":null,"":null,"":null,"color":null},
  {"Bar":"Old Dominion Brewhouse","Street":"1219 9th Street NW","City":"Washington","State":"DC","Zip":20001,"Phone":"202-289-8158","Day":"TU","Time":"7:30 PM","Company":"Trivia Kings","Latitude":38.906048,"Longitude":-77.024045,"":null,"":null,"":null,"":null,"":null,"":null,"":null,"":null,"":null,"":null,"color":null},
  {"Bar":"Old Glory","Street":"3139 M Stret NW","City":"Washington","State":"DC","Zip":20007,"Phone":"202-337-3406","Day":"TU","Time":"8:00 PM","Company":"Trivia Kings","Latitude":38.91307,"Longitude":-77.074112,"":null,"":null,"":null,"":null,"":null,"":null,"":null,"":null,"":null,"":null,"color":null},
  {"Bar":"Star and Shamrock","Street":"1341 H Street NE","City":"Washington","State":"DC","Zip":20002,"Phone":"202-388-3833","Day":"M","Time":"8:00 PM","Company":"Trivia Kings","Latitude":38.900172,"Longitude":-76.986936,"":null,"":null,"":null,"":null,"":null,"":null,"":null,"":null,"":null,"":null,"color":null},
  {"Bar":"Trusty's ","Street":"1402 Pennsylvania Avenue SE","City":"Washington","State":"DC","Zip":20003,"Phone":"202-547-1000","Day":"TU","Time":"8:00 PM","Company":"Trivia Kings","Latitude":38.880191,"Longitude":-76.984858,"":null,"":null,"":null,"":null,"":null,"":null,"":null,"":null,"":null,"":null,"color":null},
  {"Bar":"Clarendon Grill","Street":"1101 North Highland Street","City":"Arlington","State":"VA","Zip":22201,"Phone":"703-524-7455","Day":"W","Time":"8:00 PM","Company":"Trivia Kings","Latitude":38.886269,"Longitude":-77.094824,"":null,"":null,"":null,"":null,"":null,"":null,"":null,"":null,"":null,"":null,"color":null},
  {"Bar":"Crystal City Sports Pub","Street":"529 23rd Street South","City":"Arlington","State":"VA","Zip":22202,"Phone":"703-521-8215","Day":"M","Time":"8:00 PM","Company":"Trivia Kings","Latitude":38.853366,"Longitude":-77.054556,"":null,"":null,"":null,"":null,"":null,"":null,"":null,"":null,"":null,"":null,"color":null},
  {"Bar":"Grevey's Sports Bar","Street":"8130 Arlington Boulevard","City":"Falls Church","State":"VA","Zip":22042,"Phone":"703-560-8530","Day":"W","Time":"8:00 PM","Company":"Trivia Kings","Latitude":38.867451,"Longitude":-77.227477,"":null,"":null,"":null,"":null,"":null,"":null,"":null,"":null,"":null,"":null,"color":null},
  {"Bar":"P.J. Skidoos","Street":"9908 Lee Highway","City":"Fairfax","State":"VA","Zip":22030,"Phone":"703-591-4515","Day":"W","Time":"8:30 PM","Company":"Trivia Kings","Latitude":38.863231,"Longitude":-77.288007,"":null,"":null,"":null,"":null,"":null,"":null,"":null,"":null,"":null,"":null,"color":null},
  {"Bar":"Public House No. 7","Street":"6315 Leesburg Pike","City":"Falls Church","State":"VA","Zip":22044,"Phone":"703-942-6383","Day":"TU","Time":"8:00 PM","Company":"Trivia Kings","Latitude":38.871203,"Longitude":-77.155219,"":null,"":null,"":null,"":null,"":null,"":null,"":null,"":null,"":null,"":null,"color":null},
  {"Bar":"Samuel Beckett's","Street":"2800 South Randolph Street","City":"Arlington","State":"VA","Zip":22206,"Phone":"703-379-0122","Day":"TU","Time":"7:30 PM","Company":"Trivia Kings","Latitude":38.840819,"Longitude":-77.088727,"":null,"":null,"":null,"":null,"":null,"":null,"":null,"":null,"":null,"":null,"color":null},
  {"Bar":"Siné Irish Pub","Street":"1301 South Joyce Street","City":"Arlington","State":"VA","Zip":22202,"Phone":"703-415-4420","Day":"SU","Time":"7:00 PM","Company":"Trivia Kings","Latitude":38.863581,"Longitude":-77.063534,"":null,"":null,"":null,"":null,"":null,"":null,"":null,"":null,"":null,"":null,"color":null},
  {"Bar":"Union Jack's Ballston","Street":"671 North Glebe Road","City":"Arlington","State":"VA","Zip":22203,"Phone":"703-778-3568","Day":"M","Time":"8:00 PM","Company":"Trivia Kings","Latitude":38.878668,"Longitude":-77.111712,"":null,"":null,"":null,"":null,"":null,"":null,"":null,"":null,"":null,"":null,"color":null},
  {"Bar":"Wilson Tavern","Street":"2403 Wilson Boulevard","City":"Arlington","State":"VA","Zip":22201,"Phone":"571-970-5330","Day":"TU","Time":"8:00 PM","Company":"Trivia Kings","Latitude":38.890842,"Longitude":-77.087552,"":null,"":null,"":null,"":null,"":null,"":null,"":null,"":null,"":null,"":null,"color":null},
  {"Bar":"James Joyce Irish Pub","Street":"616 President Street","City":"Baltimore","State":"MD","Zip":21202,"Phone":"410-727-5107","Day":"TU","Time":"8:00 PM","Company":"Trivia Kings","Latitude":39.283971,"Longitude":-76.60217,"":null,"":null,"":null,"":null,"":null,"":null,"":null,"":null,"":null,"":null,"color":null},
  {"Bar":"Union Jack's Columbia","Street":"10400 Little Patuxent Parkway","City":"Columbia","State":"MD","Zip":21044,"Phone":"410-740-5225","Day":"M","Time":"8:00 PM","Company":"Trivia Kings","Latitude":39.212802,"Longitude":-76.857863,"":null,"":null,"":null,"":null,"":null,"":null,"":null,"":null,"":null,"":null,"color":null},
  {"Bar":"Growlers","Street":"227 East Diamond Avenue","City":"Gaithersburg","State":"MD","Zip":20877,"Phone":"301-519-9400","Day":"TU","Time":"8:00 PM","Company":"Trivia Kings","Latitude":39.142097,"Longitude":-77.194289,"":null,"":null,"":null,"":null,"":null,"":null,"":null,"":null,"":null,"":null,"color":null},
  {"Bar":"Irish Channel","Street":"1053 Route 3 North","City":"Crofton","State":"MD","Zip":21054,"Phone":"410-451-4222","Day":"W","Time":"7:00 PM","Company":"Trivia Kings","Latitude":39.026847,"Longitude":-76.688239,"":null,"":null,"":null,"":null,"":null,"":null,"":null,"":null,"":null,"":null,"color":null},
  {"Bar":"Limerick Pub","Street":"11301 Elkin Street","City":"Wheaton","State":"MD","Zip":20902,"Phone":"301-946-3232","Day":"TU","Time":"8:00 PM","Company":"Trivia Kings","Latitude":39.040409,"Longitude":-77.050337,"":null,"":null,"":null,"":null,"":null,"":null,"":null,"":null,"":null,"":null,"color":null},
  {"Bar":"Union Jack's Annapolis","Street":"2072 Somerville Road","City":"Annapolis","State":"MD","Zip":21041,"Phone":"410-841-5599","Day":"M","Time":"8:00 PM","Company":"Trivia Kings","Latitude":38.981691,"Longitude":-76.538227,"":null,"":null,"":null,"":null,"":null,"":null,"":null,"":null,"":null,"":null,"color":null},
  {"Bar":"Union Jack's Bethesda","Street":"4916 Saint Elmo Avenue","City":"Bethesda","State":"MD","Zip":20814,"Phone":"301-652-2561","Day":"TU","Time":"8:00 PM","Company":"Trivia Kings","Latitude":38.988571,"Longitude":-77.097634,"":null,"":null,"":null,"":null,"":null,"":null,"":null,"":null,"":null,"":null,"color":null},
  {"Bar":"Austin Grill","Street":"750 E Street NW","City":"Washington","State":"DC","Zip":20004,"Phone":"202-393-3776","Day":"M","Time":"7:30 PM","Company":"Team Trivia","Latitude":38.896082,"Longitude":-77.022453,"":null,"":null,"":null,"":null,"":null,"":null,"":null,"":null,"":null,"":null,"color":null},
  {"Bar":"D.B. McMillan's","Street":"23415 Three Notch Road","City":"California","State":"MD","Zip":20619,"Phone":"301-866-0777","Day":"M","Time":"6:30 PM","Company":"Team Trivia","Latitude":38.309538,"Longitude":-76.531559,"":null,"":null,"":null,"":null,"":null,"":null,"":null,"":null,"":null,"":null,"color":null},
  {"Bar":"Ruddy Duck","Street":"13200 Dowell Road","City":"Dowell","State":"MD","Zip":20629,"Phone":"410-394-3825","Day":"M","Time":"7:00 PM","Company":"Team Trivia","Latitude":38.349942,"Longitude":-76.457089,"":null,"":null,"":null,"":null,"":null,"":null,"":null,"":null,"":null,"":null,"color":null},
  {"Bar":"Rockfish","Street":"400 Sixth Street","City":"Annapolis","State":"MD","Zip":21403,"Phone":"410-267-1800","Day":"M","Time":"8:00 PM","Company":"Team Trivia","Latitude":38.970285,"Longitude":-76.484564,"":null,"":null,"":null,"":null,"":null,"":null,"":null,"":null,"":null,"":null,"color":null},
  {"Bar":"Lounge at Bollywood Masala","Street":"22576 MacArthur Boulevard","City":"California","State":"MD","Zip":20619,"Phone":"301-862-7735","Day":"TU","Time":"6:30 PM","Company":"Team Trivia","Latitude":38.287225,"Longitude":-76.485492,"":null,"":null,"":null,"":null,"":null,"":null,"":null,"":null,"":null,"":null,"color":null},
  {"Bar":"T.G.I. Friday's","Street":"3033 Waldorf Marketplace","City":"Waldorf","State":"MD","Zip":20604,"Phone":"301-932-8750","Day":"TU","Time":"7:30 PM","Company":"Team Trivia","Latitude":38.626529,"Longitude":-76.919089,"":null,"":null,"":null,"":null,"":null,"":null,"":null,"":null,"":null,"":null,"color":null},
  {"Bar":"Gridiron Grill","Street":"20865 Callaway Villageway","City":"Callaway","State":"MD","Zip":20620,"Phone":"301-994-1020","Day":"W","Time":"7:00 PM","Company":"Team Trivia","Latitude":38.239016,"Longitude":-76.523195,"":null,"":null,"":null,"":null,"":null,"":null,"":null,"":null,"":null,"":null,"color":null},
  {"Bar":"Chevys","Street":"2430 Solomons Island Road","City":"Annapolis","State":"MD","Zip":21401,"Phone":"410-573-4932","Day":"W","Time":"7:30 PM","Company":"Team Trivia","Latitude":38.976397,"Longitude":-76.540427,"":null,"":null,"":null,"":null,"":null,"":null,"":null,"":null,"":null,"":null,"color":null},
  {"Bar":"Buffalo Wild Wings","Street":"46370 Lexington Village Way","City":"Lexington Park","State":"MD","Zip":20653,"Phone":"240-237-8144","Day":"W","Time":"7:00 PM","Company":"Team Trivia","Latitude":38.248532,"Longitude":-76.452047,"":null,"":null,"":null,"":null,"":null,"":null,"":null,"":null,"":null,"":null,"color":null},
  {"Bar":"Greene Turtle","Street":"98 Solomons Island Road","City":"Prince Frederick","State":"MD","Zip":20676,"Phone":"410-414-5030","Day":"TH","Time":"7:00 PM","Company":"Team Trivia","Latitude":38.537883,"Longitude":-76.588931,"":null,"":null,"":null,"":null,"":null,"":null,"":null,"":null,"":null,"":null,"color":null},
  {"Bar":"El Cerro Grande","Street":"22695 Washington Street","City":"Leonardtown","State":"MD","Zip":20650,"Phone":"301-997-0808","Day":"TH","Time":"6:30 PM","Company":"Team Trivia","Latitude":38.290788,"Longitude":-76.636113,"":null,"":null,"":null,"":null,"":null,"":null,"":null,"":null,"":null,"":null,"color":null},
  {"Bar":"Chevys","Street":"15914 Crain Highway","City":"Brandywine","State":"MD","Zip":20613,"Phone":"301-782-9099","Day":"TH","Time":"7:00 PM","Company":"Team Trivia","Latitude":38.670018,"Longitude":-76.876008,"":null,"":null,"":null,"":null,"":null,"":null,"":null,"":null,"":null,"":null,"color":null},
  {"Bar":"St. Babes Tavern","Street":"8760 Hawthorne Road","City":"La Plata ","State":"MD","Zip":20760,"Phone":"301-934-8422","Day":"SA","Time":"7:30 PM","Company":"Team Trivia","Latitude":38.540951,"Longitude":-77.007834,"":null,"":null,"":null,"":null,"":null,"":null,"":null,"":null,"":null,"":null,"color":null},
  {"Bar":"Barracuda's","Street":"1230 East Fort Avenue","City":"Baltimore","State":"MD","Zip":21230,"Phone":"410-685-2832","Day":"M","Time":"7:30 PM","Company":"Showtime Trivia","Latitude":39.269984,"Longitude":-76.596554,"":null,"":null,"":null,"":null,"":null,"":null,"":null,"":null,"":null,"":null,"color":null},
  {"Bar":"Belisimo's","Street":"2900 Baltimore Boulevard","City":"Finksburg","State":"MD","Zip":21048,"Phone":"410-833-5777","Day":"M","Time":"8:00 PM","Company":"Showtime Trivia","Latitude":39.497926,"Longitude":-76.893501,"":null,"":null,"":null,"":null,"":null,"":null,"":null,"":null,"":null,"":null,"color":null},
  {"Bar":"Charles Village Pub","Street":"19 West penn Avenue","City":"Towson","State":"MD","Zip":21204,"Phone":"410-821-8155","Day":"M","Time":"7:00 PM","Company":"Showtime Trivia","Latitude":39.400535,"Longitude":-76.60314,"":null,"":null,"":null,"":null,"":null,"":null,"":null,"":null,"":null,"":null,"color":null},
  {"Bar":"Elliott's Pour House","Street":"3728 Hudson Street","City":"Brewers Hill","State":"MD","Zip":21224,"Phone":"410-276-2200","Day":"M","Time":"7:30 PM","Company":"Showtime Trivia","Latitude":39.282611,"Longitude":-76.565635,"":null,"":null,"":null,"":null,"":null,"":null,"":null,"":null,"":null,"":null,"color":null},
  {"Bar":"Greene Turtle","Street":"1604 Ridgeside Court","City":"Mount Airy","State":"MD","Zip":21771,"Phone":"301-829-9229","Day":"M","Time":"7:00 PM","Company":"Showtime Trivia","Latitude":39.363569,"Longitude":-77.16256,"":null,"":null,"":null,"":null,"":null,"":null,"":null,"":null,"":null,"":null,"color":null},
  {"Bar":"Greene Turtle","Street":"18101 Town Center Drive","City":"Olney","State":"MD","Zip":20832,"Phone":"301-570-0343","Day":"M","Time":"7:00 PM","Company":"Showtime Trivia","Latitude":39.151834,"Longitude":-77.061681,"":null,"":null,"":null,"":null,"":null,"":null,"":null,"":null,"":null,"":null,"color":null},
  {"Bar":"MaGerks","Street":"1061 South Charles Street","City":"Baltimore","State":"MD","Zip":21230,"Phone":"410-576-9230","Day":"M","Time":"7:30 PM","Company":"Showtime Trivia","Latitude":39.276977,"Longitude":-76.614371,"":null,"":null,"":null,"":null,"":null,"":null,"":null,"":null,"":null,"":null,"color":null},
  {"Bar":"Phoenix Emporium","Street":"8049 Main Street","City":"Ellicott City","State":"MD","Zip":21043,"Phone":"410-465-5665","Day":"M","Time":"8:00 PM","Company":"Showtime Trivia","Latitude":39.267693,"Longitude":-76.795428,"":null,"":null,"":null,"":null,"":null,"":null,"":null,"":null,"":null,"":null,"color":null},
  {"Bar":"Bill Bateman's Bistro","Street":"8100 Waltham Woods Road","City":"Baltimore","State":"MD","Zip":21234,"Phone":"410-668-1080","Day":"TU","Time":"8:00 PM","Company":"Showtime Trivia","Latitude":39.39861,"Longitude":-76.542619,"":null,"":null,"":null,"":null,"":null,"":null,"":null,"":null,"":null,"":null,"color":null},
  {"Bar":"Cobblestone Tavern","Street":"1438 Liberty Road","City":"Eldersburg","State":"MD","Zip":21784,"Phone":"410-795-7001","Day":"TU","Time":"8:00 PM","Company":"Showtime Trivia","Latitude":39.402068,"Longitude":-76.944044,"":null,"":null,"":null,"":null,"":null,"":null,"":null,"":null,"":null,"":null,"color":null},
  {"Bar":"Greene Turtle","Street":"177 Jennifer Road","City":"Annapolis","State":"MD","Zip":21401,"Phone":"410-266-747","Day":"TU","Time":"7:30 PM","Company":"Showtime Trivia","Latitude":38.986827,"Longitude":-76.544516,"":null,"":null,"":null,"":null,"":null,"":null,"":null,"":null,"":null,"":null,"color":null},
  {"Bar":"Greene Turtle","Street":"19961 Century Boulevard","City":"Germantown","State":"MD","Zip":20874,"Phone":"240-686-1800","Day":"TU","Time":"7:00 PM","Company":"Showtime Trivia","Latitude":39.183527,"Longitude":-77.262437,"":null,"":null,"":null,"":null,"":null,"":null,"":null,"":null,"":null,"":null,"color":null},
  {"Bar":"Greene Turtle","Street":"2 Restaurant Park Drive","City":"Owings Mills","State":"MD","Zip":21117,"Phone":"443-501-3822","Day":"TU","Time":"7:00 PM","Company":"Showtime Trivia","Latitude":39.40333,"Longitude":-76.793789,"":null,"":null,"":null,"":null,"":null,"":null,"":null,"":null,"":null,"":null,"color":null},
  {"Bar":"Greene Turtle","Street":"20 Magothy Beach Road","City":"Pasadena","State":"MD","Zip":21122,"Phone":"410-437-0075","Day":"TU","Time":"7:30 PM","Company":"Showtime Trivia","Latitude":39.121339,"Longitude":-76.517237,"":null,"":null,"":null,"":null,"":null,"":null,"":null,"":null,"":null,"":null,"color":null},
  {"Bar":"Hop Heads Ale House","Street":"9611 Pulaski Highway","City":"Baltimore","State":"MD","Zip":21221,"Phone":"443-969-2477","Day":"TU","Time":"8:00 PM","Company":"Showtime Trivia","Latitude":39.353832,"Longitude":-76.453231,"":null,"":null,"":null,"":null,"":null,"":null,"":null,"":null,"":null,"":null,"color":null},
  {"Bar":"Looney's Pub","Street":"312 South Main Street","City":"Bel Air","State":"MD","Zip":21014,"Phone":"410-803-7080","Day":"TU","Time":"7:30 PM","Company":"Showtime Trivia","Latitude":39.533651,"Longitude":-76.346338,"":null,"":null,"":null,"":null,"":null,"":null,"":null,"":null,"":null,"":null,"color":null},
  {"Bar":"Mick O'Sheas Tavern","Street":"328 North Charles Street","City":"Baltimore","State":"MD","Zip":21201,"Phone":"410-539-7504","Day":"TU","Time":"8:30 PM","Company":"Showtime Trivia","Latitude":39.293233,"Longitude":-76.615384,"":null,"":null,"":null,"":null,"":null,"":null,"":null,"":null,"":null,"":null,"color":null},
  {"Bar":"Padonia Station","Street":"63 East Padonia Road","City":"Timonium","State":"MD","Zip":21093,"Phone":"410-252-8181","Day":"TU","Time":"8:00 PM","Company":"Showtime Trivia","Latitude":39.456144,"Longitude":-76.62872,"":null,"":null,"":null,"":null,"":null,"":null,"":null,"":null,"":null,"":null,"color":null},
  {"Bar":"Dempsey's Brew Pub","Street":"333 West Camden Street","City":"Baltimore","State":"MD","Zip":21230,"Phone":"410-843-7902","Day":"W","Time":"7:00 PM When no Orioles night home game","Company":"Showtime Trivia","Latitude":39.283423,"Longitude":-76.619912,"":null,"":null,"":null,"":null,"":null,"":null,"":null,"":null,"":null,"":null,"color":null},
  {"Bar":"Firehouse Tavern","Street":"2800 East Joppa Road","City":"Parkville","State":"MD","Zip":21234,"Phone":"410-661-3555","Day":"W","Time":"8:00 PM","Company":"Showtime Trivia","Latitude":39.39562,"Longitude":-76.527221,"":null,"":null,"":null,"":null,"":null,"":null,"":null,"":null,"":null,"":null,"color":null},
  {"Bar":"Greene Turtle","Street":"2383 Brandermill Boulevard","City":"Gambrills","State":"MD","Zip":21054,"Phone":"410-451-7544","Day":"W","Time":"7:30 PM","Company":"Showtime Trivia","Latitude":39.03523,"Longitude":-76.682249,"":null,"":null,"":null,"":null,"":null,"":null,"":null,"":null,"":null,"":null,"color":null},
  {"Bar":"Greene Turtle","Street":"830 Market Street","City":"Westminster","State":"MD","Zip":21157,"Phone":"410-871-1524","Day":"W","Time":"8:30 PM","Company":"Showtime Trivia","Latitude":39.563612,"Longitude":-76.966204,"":null,"":null,"":null,"":null,"":null,"":null,"":null,"":null,"":null,"":null,"color":null},
  {"Bar":"Main Street Tower","Street":"29 South Main Street","City":"Bel Air","State":"MD","Zip":21014,"Phone":"410-838-8007","Day":"W","Time":"7:00 PM","Company":"Showtime Trivia","Latitude":39.536108,"Longitude":-76.348994,"":null,"":null,"":null,"":null,"":null,"":null,"":null,"":null,"":null,"":null,"color":null},
  {"Bar":"Ottobar","Street":"2549 North Howard Street","City":"Baltimore","State":"MD","Zip":21218,"Phone":"410-662-0069","Day":"W","Time":"7:00 PM","Company":"Showtime Trivia","Latitude":39.318594,"Longitude":-76.619764,"":null,"":null,"":null,"":null,"":null,"":null,"":null,"":null,"":null,"":null,"color":null},
  {"Bar":"Sunset Cove","Street":"3408 Red Rose Farm Road","City":"Bowleys Quarters","State":"MD","Zip":21220,"Phone":"410-630-2031","Day":"W","Time":"7:00 PM","Company":"Showtime Trivia","Latitude":39.324202,"Longitude":-76.398536,"":null,"":null,"":null,"":null,"":null,"":null,"":null,"":null,"":null,"":null,"color":null},
  {"Bar":"Tilted Kilt","Street":"8133 Honeygo Boulevard","City":"White Marsh","State":"MD","Zip":21236,"Phone":"410-497-0792","Day":"W","Time":"8:00 PM","Company":"Showtime Trivia","Latitude":39.371779,"Longitude":-76.465767,"":null,"":null,"":null,"":null,"":null,"":null,"":null,"":null,"":null,"":null,"color":null},
  {"Bar":"Bill Bateman's Bistro","Street":"102 Chartley Drive","City":"Reisterstown","State":"MD","Zip":21136,"Phone":"410-526-6200","Day":"TH","Time":"8:30 PM","Company":"Showtime Trivia","Latitude":39.456728,"Longitude":-76.822903,"":null,"":null,"":null,"":null,"":null,"":null,"":null,"":null,"":null,"":null,"color":null},
  {"Bar":"Glory Days Grill","Street":"1348 Liberty Road","City":"Eldersburg","State":"MD","Zip":21784,"Phone":"410-552-5145","Day":"TH","Time":"8:30 PM","Company":"Showtime Trivia","Latitude":39.403442,"Longitude":-76.948258,"":null,"":null,"":null,"":null,"":null,"":null,"":null,"":null,"":null,"":null,"color":null},
  {"Bar":"Ropewalk Tavern","Street":"1209 South Charles Street","City":"Baltimore","State":"MD","Zip":21230,"Phone":"410-727-1298","Day":"TH","Time":"8:00 PM","Company":"Showtime Trivia","Latitude":39.275448,"Longitude":-76.614266,"":null,"":null,"":null,"":null,"":null,"":null,"":null,"":null,"":null,"":null,"color":null},
  {"Bar":"Portside Restaurant","Street":"201 Trenton Street","City":"Cambridge","State":"MD","Zip":21613,"Phone":"410-228-9007 ","Day":"W","Time":"7:30 PM","Company":"World Tavern Trivia","Latitude":38.56099,"Longitude":-76.08399,"":null,"":null,"":null,"":null,"":null,"":null,"":null,"":null,"":null,"":null,"color":null},
  {"Bar":"Flying Fish","Street":"815A King Street ","City":"Alexandria","State":"VA","Zip":22314,"Phone":"703-600-3474 ","Day":"W","Time":"7:00 PM","Company":"World Tavern Trivia","Latitude":38.80747,"Longitude":-77.052068,"":null,"":null,"":null,"":null,"":null,"":null,"":null,"":null,"":null,"":null,"color":null},
  {"Bar":"Cowboy Café","Street":"4792 Lee Highway","City":"Arlington","State":"VA","Zip":22207,"Phone":"703-243-8010","Day":"M","Time":"7:30 PM","Company":"Earth Trivia","Latitude":38.904431,"Longitude":-77.126062,"":null,"":null,"":null,"":null,"":null,"":null,"":null,"":null,"":null,"":null,"color":null},
  {"Bar":"Fadó Irish Pub","Street":"808 7th St NW","City":"Washington","State":"DC","Zip":20001,"Phone":"202-789-0066","Day":"M","Time":"8:00 PM","Company":"Brainstormer Trivia","Latitude":38.90147,"Longitude":-77.021894,"":null,"":null,"":null,"":null,"":null,"":null,"":null,"":null,"":null,"":null,"color":null},
  {"Bar":"National Press Club","Street":"529 14th Street NW","City":"Washington","State":"DC","Zip":20045,"Phone":"202-662-7500","Day":"TH","Time":"8:00 PM","Company":"Brainstormer Trivia","Latitude":38.89032,"Longitude":-77.031959,"":null,"":null,"":null,"":null,"":null,"":null,"":null,"":null,"":null,"":null,"color":null},
  {"Bar":"Fadó Irish Pub","Street":"1 Park Place","City":"Annapolis","State":"MD","Zip":21401,"Phone":"410-626-0069","Day":"W","Time":"8:00 PM","Company":"Brainstormer Trivia","Latitude":38.985293,"Longitude":-76.580943,"":null,"":null,"":null,"":null,"":null,"":null,"":null,"":null,"":null,"":null,"color":null},
  {"Bar":"Rí Rá Irish Pub","Street":"4931 Elm Street","City":"Bethesda","State":"MD","Zip":20814,"Phone":"301-657-1122","Day":"TU","Time":"7:30 PM","Company":"Brainstormer Trivia","Latitude":39.00151,"Longitude":-77.102399,"":null,"":null,"":null,"":null,"":null,"":null,"":null,"":null,"":null,"":null,"color":null},
  {"Bar":"Ireland's Own","Street":"111 North Pitt Street","City":"Alexandria","State":"VA","Zip":22314,"Phone":"703-549-4535","Day":"TU","Time":"7:30 PM","Company":"Brainstormer Trivia","Latitude":38.80747,"Longitude":-77.052068,"":null,"":null,"":null,"":null,"":null,"":null,"":null,"":null,"":null,"":null,"color":null},
  {"Bar":"Murphy's Grand irish Pub","Street":"713 King Street","City":"Alexandria","State":"VA","Zip":22314,"Phone":"703-548-1717","Day":"TU","Time":"7:30 PM","Company":"Brainstormer Trivia","Latitude":38.80747,"Longitude":-77.052068,"":null,"":null,"":null,"":null,"":null,"":null,"":null,"":null,"":null,"":null,"color":null},
  {"Bar":"Ireland's Four Courts","Street":"2051 Wilson Boulevard","City":"Arlington","State":"VA","Zip":22201,"Phone":"703-525-3600","Day":"M","Time":"7:30 PM","Company":"Brainstormer Trivia","Latitude":38.88659,"Longitude":-77.094879,"":null,"":null,"":null,"":null,"":null,"":null,"":null,"":null,"":null,"":null,"color":null},
  {"Bar":"Rí Rá Irish Pub","Street":"2915 Wilson Boulevard","City":"Arlington","State":"VA","Zip":22201,"Phone":"703-248-9888","Day":"TU","Time":"8:00 PM","Company":"Brainstormer Trivia","Latitude":38.88659,"Longitude":-77.094879,"":null,"":null,"":null,"":null,"":null,"":null,"":null,"":null,"":null,"":null,"color":null},
  {"Bar":"Flanagan's Harp and Fiddle","Street":"4844 Cordell Avenue","City":"Bethesda","State":"MD","Zip":20814,"Phone":"301-951-0115","Day":"M","Time":"8:00 PM","Company":"Stump! Trivia","Latitude":39.004799,"Longitude":-77.105389,"":null,"":null,"":null,"":null,"":null,"":null,"":null,"":null,"":null,"":null,"color":null},
  {"Bar":"Saphire Café","Street":"7940 Wisconsin Avenue","City":"Bethesda","State":"MD","Zip":20814,"Phone":"301-'986-9708","Day":"W","Time":"7:30 PM","Company":"Stump! Trivia","Latitude":39.00151,"Longitude":-77.102399,"":null,"":null,"":null,"":null,"":null,"":null,"":null,"":null,"":null,"":null,"color":null},
  {"Bar":"American Tap Room","Street":"36-A Maryland Avenue","City":"Rockville","State":"MD","Zip":20850,"Phone":"301-838-4281","Day":"M","Time":"8:00 PM","Company":"Stump! Trivia","Latitude":39.09134,"Longitude":-77.174159,"":null,"":null,"":null,"":null,"":null,"":null,"":null,"":null,"":null,"":null,"color":null},
  {"Bar":"Ledo Pizza","Street":"7510 Leesburg Pike","City":"Falls Church","State":"VA","Zip":22043,"Phone":"703-847-5336","Day":"TU","Time":"7:00 PM","Company":"Stump! Trivia","Latitude":38.90075,"Longitude":-77.197289,"":null,"":null,"":null,"":null,"":null,"":null,"":null,"":null,"":null,"":null,"color":null},
  {"Bar":"American Tap Room","Street":"3101 Wilson Boulevard","City":"Arlington","State":"VA","Zip":22201,"Phone":"703-312-9080","Day":"M","Time":"7:00 PM","Company":"Stump! Trivia","Latitude":38.88659,"Longitude":-77.094879,"":null,"":null,"":null,"":null,"":null,"":null,"":null,"":null,"":null,"":null,"color":null},
  {"Bar":"Living Social's 918 F Street","Street":"918 F Street NW","City":"Washington","State":"DC","Zip":20004,"Phone":"202-695-8938","Day":"M","Time":"7:00 PM","Company":"PubStumpers Trivia","Latitude":38.89097,"Longitude":-77.022124,"":null,"":null,"":null,"":null,"":null,"":null,"":null,"":null,"":null,"":null,"color":null},
  {"Bar":"Bungalow","Street":"7003-C Manchester Boulevard","City":"Alexandria","State":"VA","Zip":22310,"Phone":"703-924-8730","Day":"TU","Time":"8:30 PM","Company":"PubStumpers Trivia","Latitude":38.78362,"Longitude":-77.124601,"":null,"":null,"":null,"":null,"":null,"":null,"":null,"":null,"":null,"":null,"color":null},
  {"Bar":"Bungalow","Street":"2766 South Arlington Mill Drive","City":"Arlington","State":"VA","Zip":22206,"Phone":"703-578-0020","Day":"M","Time":"8:30 PM","Company":"PubStumpers Trivia","Latitude":38.840982,"Longitude":-77.091219,"":null,"":null,"":null,"":null,"":null,"":null,"":null,"":null,"":null,"":null,"color":null},
  {"Bar":"Hard Times Café","Street":"4069 Chain Bridge Road","City":"Fairfax","State":"VA","Zip":22030,"Phone":"703-267-9590","Day":"W","Time":"8:00 PM","Company":"PubStumpers Trivia","Latitude":38.848467,"Longitude":-77.334439,"":null,"":null,"":null,"":null,"":null,"":null,"":null,"":null,"":null,"":null,"color":null},
  {"Bar":"Jakes Boiler Room","Street":"5018 Connecticut Avenue NW","City":"Washington","State":"DC","Zip":20008,"Phone":"202-966-5253","Day":"M","Time":"8:00 PM","Company":"Geeks Who Drink","Latitude":38.933495,"Longitude":-77.059089,"":null,"":null,"":null,"":null,"":null,"":null,"":null,"":null,"":null,"":null,"color":null},
  {"Bar":"District 2 Bar & Grille","Street":"3238 Wisconsin Avenue","City":"Washington","State":"DC","Zip":20016,"Phone":"202-362-0362","Day":"W","Time":"8:00 PM","Company":"Geeks Who Drink","Latitude":38.942709,"Longitude":-77.090832,"":null,"":null,"":null,"":null,"":null,"":null,"":null,"":null,"":null,"":null,"color":null},
  {"Bar":"Hard Times Café","Street":"6362 Springfield Plaza","City":"Springfield","State":"VA","Zip":22150,"Phone":"703-913-5600","Day":"TU","Time":"8:00 PM","Company":"Geeks Who Drink","Latitude":38.77497,"Longitude":-77.183759,"":null,"":null,"":null,"":null,"":null,"":null,"":null,"":null,"":null,"":null,"color":null},
  {"Bar":"Hard Times Café","Street":"3028 Wilson Boulevard","City":"Arlington","State":"VA","Zip":22201,"Phone":"703-528-2233","Day":"W","Time":"8:00 PM","Company":"Geeks Who Drink","Latitude":38.88659,"Longitude":-77.094879,"":null,"":null,"":null,"":null,"":null,"":null,"":null,"":null,"":null,"":null,"color":null}]